{
  "viewpoint": [
    {
      "name": "Riddarholmen",
      "route": "Riddarholmen",
      "coords": {
        "lat": 59.325,
        "lng": 18.063
      },
      "icon": "viewpoint.svg",
      "img": "https://www.aj-landskap.se/wp-content/uploads/2019/01/AJ-Landskap_Riddarholmen_9.jpg"
    },
    {
      "name": "View from Fotografiska",
      "route": "View from Fotografiska",
      "coords": {
        "lat": 59.317,
        "lng": 18.085
      },
      "icon": "viewpoint.svg",
      "img": "https://photo620x400.mnstatic.com/1277557f1145b8507c07fec2da0a351e/view-from-fotografiska.jpg"
    },
    {
      "name": "Montelius Vägen",
      "route": "Montelius Vägen",
      "coords": {
        "lat": 59.320,
        "lng": 18.060
      },
      "icon": "viewpoint.svg",
      "img": "https://media.swedentips.se/monteliusvagen_stockholm_01.jpg"
    },
    {
      "name": "Gamla Lundagatan",
      "route": "Gamla Lundagatan",
      "coords": {
        "lat": 59.319,
        "lng": 18.053
      },
      "icon": "viewpoint.svg",
      "img": "https://a4.pbase.com/g2/96/629796/2/149379419.2zWPDR3h.jpg"
    },
    {
      "name": "Mariaberget",
      "route": "Mariaberget",
      "coords": {
        "lat": 59.320,
        "lng": 18.062
      },
      "icon": "viewpoint.svg",
      "img": "https://upload.wikimedia.org/wikipedia/commons/thumb/a/a6/Kvarteret_Lappskon_st%C3%B6rre%2C_2018a.jpg/312px-Kvarteret_Lappskon_st%C3%B6rre%2C_2018a.jpg"
    },
    {
      "name": "Katarina Hissen",
      "route": "Katarina Hissen",
      "coords": {
        "lat": 59.319,
        "lng": 18.073
      },
      "icon": "viewpoint.svg",
      "img": "https://upload.wikimedia.org/wikipedia/commons/b/be/Katarinahissen-DSC_0124w.jpg"
    },
    {
      "name": "Alvsborg Bridge",
      "route": "Alvsborg Bridge",
      "coords": {
        "lat": 57.691,
        "lng": 11.901
      },
      "icon": "viewpoint.svg",
      "img": "https://www.mageba-group.com/hu/data/docs/hu/4024/REFSHEET-Alvsborg-bridge-mainimg.jpg?v=1.1"
    },
    {
      "name": "Views from Stadshuset",
      "route": "Views from Stadshuset",
      "coords": {
        "lat": 59.359,
        "lng": 18.036
      },
      "icon": "viewpoint.svg",
      "img": "https://static.wixstatic.com/media/ded9d8_40975261146c4f6ba56915b16b5734ac~mv2.jpg/v1/fill/w_1000,h_461,al_c,q_90,usm_0.66_1.00_0.01/ded9d8_40975261146c4f6ba56915b16b5734ac~mv2.jpg"
    },
    {
      "name": "Sauna Abisko",
      "route": "Sauna Abisko",
      "coords": {
        "lat": 68.318,
        "lng": 18.684
      },
      "icon": "viewpoint.svg",
      "img": "https://stfturist-lajka.imgix.net/v1/image/citybreak/7001677?w=683&h=400&fit=full"
    },
    {
      "name": "Uppsala park",
      "route": "Uppsala park",
      "coords": {
        "lat": 59.852,
        "lng": 17.642
      },
      "icon": "viewpoint.svg",
      "img": "https://www.thelocal.com/wp-content/uploads/2016/07/1468399889_P1020199.jpg"
    },
    {
      "name": "Views from Puerto Tegelvikshamnen Stadsgården",
      "route": "Views from Puerto Tegelvikshamnen Stadsgården",
      "coords": {
        "lat": 59.359,
        "lng": 18.036
      },
      "icon": "viewpoint.svg",
      "img": "https://imgs-akamai.mnstatic.com/e2/c1/e2c138e85c7e844c2763d36ab42eb734.jpg"
    },
    {
      "name": "Gamla Uppsala",
      "route": "Gamla Uppsala",
      "coords": {
        "lat": 59.854,
        "lng": 17.63
      },
      "icon": "viewpoint.svg",
      "img": "https://upload.wikimedia.org/wikipedia/commons/4/45/Gamla_uppsala.jpg"
    },
    {
      "name": "Kaknäs Tower",
      "route": "Kaknäs Tower",
      "coords": {
        "lat": 59.335,
        "lng": 18.126
      },
      "icon": "viewpoint.svg",
      "img": "https://media-cdn.sygictraveldata.com/media/1200x630/612664395a40232133447d33247d383135373439353331"
    },
    {
      "name": "Skinnarviksberget",
      "route": "Skinnarviksberget",
      "coords": {
        "lat": 59.320,
        "lng": 18.050
      },
      "icon": "viewpoint.svg",
      "img": "https://www.swedishnomad.com/wp-content/images/2019/05/Skinnarviksberget-i-stockholm.jpg"
    },
    {
      "name": "Panorama de Sigtuna",
      "route": "Panorama de Sigtuna",
      "coords": {
        "lat": 59.615,
        "lng": 17.718
      },
      "icon": "viewpoint.svg",
      "img": "https://photo620x400.mnstatic.com/b660b3c4cce577aefc4ed4705f1ca240/panorama-de-sigtuna.jpg"
    }
  ]
}
